station_id,avg_rental,rental_std,weekday_avg,weekend_avg,peak_ratio,night_ratio,weekday_weekend_gap,cluster,pca_1,pca_2,대여소명,자치구,주소,station_lat,station_lon,park_distance_m,nearest_park_name,subway_distance_m,nearest_subway_name,bus_stop_count_300m,bus_stop_count_500m,cluster_name
2301,23.52990264255911,19.17799295491604,20.294921875,31.531400966183575,0.3540607636836505,0.1640264806714741,-11.236479091183575,1,1.689281779420292,2.581984575457002, 현대고등학교 건너편,강남구,서울특별시 강남구 압구정로 134,37.52407074,127.02178955,1169.5472992568225,도산근린공원,676.3932200344976,압구정,20,24,고수요형
2302,19.291549295774647,9.695115989094468,20.570866141732285,16.074257425742573,0.3389063298532525,0.2218003942469154,4.496608715989712,0,0.4155622032389736,1.9412392208533025, 교보타워 버스정류장(신논현역 3번출구 후면),강남구,서울특별시 강남구 봉은사로 지하 102,37.5055809,127.02427673,2325.377527410613,도산근린공원,129.30158007069147,신논현,40,124,일반수요형
2303,24.606019151846784,12.696377086296735,26.948275862068964,18.75598086124402,0.3941179740924,0.1582253850002779,8.192295000824945,1,1.8525843176657597,0.2958848981048873, 논현역 10번출구,강남구,서울특별시 강남구 학동로 지하 102,37.51137161,127.02146149,1902.7002973063866,도산근린공원,31.250221522971053,논현,40,60,고수요형
2304,8.493487698986975,6.244849552572803,9.156626506024097,6.782383419689119,0.4102913613903561,0.1286420173794513,2.3742430863349773,0,-1.3865507961232708,-0.6378068956912347, 대현그린타워,강남구,서울특별시 강남구 언주로 626,37.5116272,127.03565216,1451.9099832858928,도산근린공원,455.99558563352826,학동,12,60,일반수요형
2305,7.186317321688501,4.167441374926093,8.42156862745098,3.6271186440677967,0.4087502531901965,0.0729187765849706,4.794449983383184,0,-1.6505727240665604,-1.8221252002915924, MCM 본사 직영점 앞,강남구,서울특별시 강남구 언주로 734,37.52064133,127.03450775,450.9006871740943,도산근린공원,683.8902474091004,강남구청,16,52,일반수요형
2306,41.03556771545828,18.241345301543262,44.26819923371647,32.961722488038276,0.4008067473414008,0.106010601060106,11.306476745678196,1,5.131274932850243,-0.068725244940638, 압구정역 2번 출구 옆,강남구,서울특별시 강남구 압구정로 지하 172,37.5271225,127.02871704,619.6346411922685,도산근린공원,23.266637636051197,압구정,24,48,고수요형
2307,9.66388888888889,5.775910492574765,9.80813953488372,9.299019607843135,0.3335728657660247,0.120436907157229,0.5091199270405831,0,-1.4258164339319237,0.2426142051456853, 압구정 한양 3차 아파트,강남구,서울특별시 강남구 압구정로 321,37.52838135,127.03901672,541.7172119919788,도산근린공원,173.99806305580933,압구정로데오,20,40,일반수요형
2308,21.877914951989027,9.994925527783773,22.69289827255278,19.83653846153846,0.3200827638096432,0.1219512195121951,2.856359811014322,0,0.9255990271695076,0.8071893477122416, 압구정파출소 앞,강남구,서울특별시 강남구 압구정로 311,37.52930069,127.03559875,516.7741125358261,도산근린공원,484.7372548025296,압구정로데오,20,56,일반수요형
2309,11.249647390691116,7.713881794085134,12.490272373540856,7.97948717948718,0.4652708124373119,0.1182296890672016,4.5107851940536765,0,-0.6423425461448237,-1.423894389991637, 청담역(우리들병원 앞),강남구,서울특별시 강남구 학동로 443,37.51890182,127.04938507,381.9201251213382,청담근린공원,353.45653787576214,청담,32,56,일반수요형
2310,8.432732316227462,4.693817967008579,8.902912621359222,7.257281553398058,0.2800986842105263,0.2629934210526315,1.6456310679611643,0,-2.0162651699278924,2.909313677680327, 청담동 맥도날드 옆(위치),강남구,서울특별시 강남구 학동로 지하 508,37.52361298,127.04017639,469.00325411300037,도산근린공원,420.1698862481745,압구정로데오,28,48,일반수요형
2311,8.319884726224783,6.564694760817909,8.830985915492958,7.030456852791878,0.35971596813301,0.1165569795635607,1.80052906270108,0,-1.457554589988964,-0.2611049055019538, 학동로 래미안 아파트 앞,강남구,서울특별시 강남구 학동로 지하 508,37.51777267,127.04302216,920.8140351415318,청담근린공원,168.44798043937465,강남구청,36,48,일반수요형
2312,11.161064425770308,6.7006182954579305,12.38910505836576,8.005,0.4584013050570962,0.1603714393273936,4.384105058365758,0,-0.8460994978428499,-0.6797391760827419, 청담역 13번 출구 앞,강남구,서울특별시 강남구 영동대로 703,37.52058029,127.05632782,351.642057675519,청담근린공원,295.3513348985482,청담,36,48,일반수요형
2313,9.814305364511693,5.326001920022057,10.558766859344894,7.956730769230769,0.2690960056061668,0.2179397337070777,2.602036090114125,0,-1.6519805267165084,2.285017496247097, 금원빌딩 앞,강남구,서울특별시 강남구 도산대로 539,37.52511597,127.05246735,421.43845571544546,청담근린공원,644.1989428798224,청담,28,52,일반수요형
2314,8.370535714285714,5.987410613334609,7.676409185803758,10.093264248704664,0.3507555555555555,0.1176888888888888,-2.416855062900906,0,-1.6594230397175946,0.2281273872150009, 청담나들목입구,강남구,서울특별시 강남구 영동대로128길 59,37.52101517,127.06015015,679.7046424881831,청담근린공원,627.1679745915606,청담,8,36,일반수요형
2315,15.129834254143647,9.010351782991872,17.20576923076923,9.838235294117649,0.4287931349278802,0.0878218002556143,7.367533936651585,0,0.1675074109077761,-1.5982346968300962, 봉은사역 5번출구 옆,강남구,서울특별시 강남구 봉은사로 지하 601,37.51424789,127.06111908,497.4321171888095,봉은공원,77.16079792992284,봉은사,36,88,일반수요형
2317,12.08286252354049,7.494948493657181,11.790450928381963,12.7987012987013,0.3589463840399002,0.1365336658354114,-1.0082503703193364,0,-0.9100170544200528,0.5068385794875033, 삼성도로공원,강남구,서울특별시 강남구 영동대로112길 66,37.51588821,127.06620026,969.5726549120141,봉은공원,557.0782178184421,봉은사,20,36,일반수요형
2318,5.220913107511046,3.64438045482606,5.4621676891615545,4.6,0.3811001410437235,0.1077574047954866,0.8621676891615548,0,-2.217659423967299,-0.713625438891851, 삼성중앙역4번출구(문화센터더 리빌),강남구,서울특별시 강남구 봉은사로 531,37.51357651,127.05503082,54.761956143948886,봉은공원,166.57297561818308,삼성중앙,16,52,일반수요형
2319,15.252413793103448,9.192599133763178,18.210019267822737,7.800970873786408,0.2979743172363899,0.1171097847712063,10.40904839403633,0,0.0412606367930226,-0.0441224749324952, 포스코사거리 서측(수협 삼성동 지점),강남구,서울특별시 강남구 테헤란로 435,37.50660706,127.05467987,814.4155172746057,봉은공원,553.4290212076004,선릉,40,92,일반수요형
2320,16.292284866468844,8.002174656259404,16.352697095435683,16.140625,0.3068937255259084,0.1664693561606411,0.2120720954356834,0,-0.3123565216180727,1.6157629138814091, 도곡역 대치지구대 방향,강남구,서울특별시 강남구 남부순환로 지하 2814,37.4919281,127.05696869,1068.1946187186193,도곡근린공원,174.41770591121121,도곡,32,60,일반수요형
2321,11.871724137931034,6.403455380321853,11.385658914728682,13.07177033492823,0.3766701522016963,0.0984082723364703,-1.6861114201995484,0,-0.9864537681042888,-0.2476872822952231, 학여울역 사거리,강남구,서울특별시 강남구 남부순환로 지하 3104,37.49611664,127.06944275,2094.3629817694386,대모산도시자연공원,118.34789748598486,학여울,28,40,일반수요형
2323,13.063829787234043,8.457289726410048,16.048732943469787,5.088541666666667,0.2872964169381107,0.0395222584147665,10.96019127680312,0,-0.2525846712748328,-1.3423113724629312, 주식회사 오뚜기 정문 앞,강남구,서울특별시 강남구 영동대로 308,37.50221252,127.06720734,1660.363418540713,봉은공원,685.5983061163457,학여울,28,48,일반수요형
2324,20.70958904109589,9.37896201614503,20.908045977011493,20.21153846153846,0.3414472813864267,0.1310358513030824,0.6965075154730336,0,0.634741240327782,0.8668838974869046, 천주교 대치 2동 교회 옆,강남구,서울특별시 강남구 도곡로 540,37.50043869,127.06622314,1771.0693151197013,봉은공원,570.0386388309337,학여울,32,48,일반수요형
2325,24.218106995884774,11.16253059430324,24.321153846153845,23.961722488038276,0.297762673463608,0.1813650523930897,0.3594313581155681,1,1.1913366738573632,2.338336414701297, 대치삼성아파트 앞 교차로,강남구,서울특별시 강남구 도곡로 447,37.4986496,127.05931854,1564.4785883731438,도곡근린공원,589.106388130041,대치,24,52,고수요형
2326,17.17445054945055,9.466864298312734,17.828846153846154,15.538461538461538,0.3300007998080461,0.1456450451891546,2.2903846153846157,0,0.1139293934039609,0.9113322457870588, 대치동 삼성로,강남구,서울특별시 강남구 삼성로 350,37.50239563,127.05879974,1312.280380475509,봉은공원,813.6697752894522,삼성(무역센터),24,44,일반수요형
2327,21.400820793433653,12.202153386619129,25.373563218390803,11.47846889952153,0.3752876502173357,0.1166581436972641,13.895094318869273,1,1.5308939572680829,-0.8473845938804038, 뱅뱅사거리 랜드마크타워 앞,강남구,서울특별시 강남구 강남대로 308,37.49055099,127.03146362,1197.565299219332,도곡근린공원,708.8350334148257,양재(서초구청),48,132,고수요형
2328,17.349381017881704,9.803387929975516,19.872832369942195,11.052884615384617,0.3182430825338936,0.1264568302544993,8.81994775455758,0,0.3939408642532252,0.1451770250737624, 르네상스 호텔 사거리 역삼지하보도 7번출구 앞,강남구,서울특별시 강남구 언주로 506,37.50321198,127.04273224,1448.6348047485149,도곡근린공원,497.14653847414985,선릉,32,48,일반수요형
2329,12.903899721448468,7.799829154583919,15.059961315280464,7.358208955223881,0.30102536427415,0.1373988127361036,7.701752360056584,0,-0.5794709390020144,0.3698565279048126, 르네상스호텔사거리 역삼지하보도 2번출구,강남구,서울특별시 강남구 테헤란로 지하 156,37.50235748,127.04319,1349.1600563232314,도곡근린공원,491.46333326326635,선릉,32,64,일반수요형
2330,13.042582417582418,6.783717047520361,14.646153846153846,9.033653846153848,0.3626119010005266,0.1641916798314902,5.612499999999999,0,-0.6719276284563901,0.349582873466418, 역삼월드메르디앙아파트 앞,강남구,서울특별시 강남구 도곡로 183,37.49219894,127.03945923,534.6835065575937,도곡근린공원,870.0485363673814,매봉,24,52,일반수요형
2331,15.448275862068966,8.440505989587306,17.674373795761078,9.83980582524272,0.3886607142857143,0.1197321428571428,7.834567970518359,0,0.0536544196750603,-0.7047434647826815, 동영문화센터앞,강남구,서울특별시 강남구 언주로 337,37.49805069,127.04460144,861.270325528382,도곡근린공원,757.0745600229556,한티,36,60,일반수요형
2332,37.71545827633379,18.598748496763417,43.13793103448276,24.172248803827753,0.3599564744287268,0.1150163220892274,18.96568223065501,1,4.823439059631519,-0.3470857748938516, 선릉역3번출구,강남구,서울특별시 강남구 선릉로 435,37.50400925,127.0490799,1237.1326450731056,봉은공원,83.24954956357365,선릉,36,72,고수요형
2333,18.69103448275862,11.338390740812857,21.739884393063583,11.009708737864075,0.483285366393624,0.0666371485499225,10.730175655199506,0,1.1850331053404513,-2.614866257368216, 양재역 3번출구 주변,강남구,서울특별시 강남구 강남대로 240,37.48515701,127.03407288,1124.2480840967785,도곡근린공원,77.10226190996563,양재(서초구청),52,120,일반수요형
2334,6.457796852646638,4.400362222514305,7.511764705882353,3.613756613756614,0.3347363757199822,0.0739920248116969,3.898008092125739,0,-1.8788085137167263,-0.987390148578584, 삼호아파트 2동 ( 간선도로),강남구,서울특별시 강남구 선릉로 지하 228,37.49375916,127.04589844,390.74749889649524,도곡근린공원,674.1851780358561,한티,40,56,일반수요형
2335,44.42270861833105,21.14076705224874,49.68390804597701,31.282296650717704,0.4889292643118899,0.1046715733070551,18.40161139525931,1,6.319910289471729,-1.455456393293315, 3호선 매봉역 3번출구앞,강남구,서울특별시 강남구 남부순환로 2748,37.48676682,127.04676056,422.69507040851244,도곡근린공원,20.048936576497546,매봉,44,68,고수요형
2336,10.86842105263158,6.129949668664549,11.91279069767442,8.25242718446602,0.3380909901873327,0.1454058876003568,3.6603635132083983,0,-1.141055641779676,0.3704945515646679, 강남세브란스교차로 래미안그레이튼 104동 앞,강남구,서울특별시 강남구 선릉로 지하 228,37.49423599,127.04746246,486.03091383104135,도곡근린공원,526.6425846801769,한티,36,60,일반수요형
2337,14.865753424657534,7.38560159266794,15.042226487523992,14.425837320574162,0.3746774788057501,0.1697382970880943,0.6163891669498298,0,-0.4773676977489152,0.8579899928127296, 대모산입구역 2번출구 앞,강남구,서울특별시 강남구 영동대로 101,37.49207687,127.07197571,1593.3195106735618,대모산도시자연공원,102.16525118204883,대모산입구,20,63,일반수요형
2339,14.263374485596708,6.919417662997907,14.421455938697315,13.864734299516908,0.4533564146951336,0.1069436430082708,0.5567216391804095,0,-0.3880085026420625,-0.9897341792042124, 현대아파트 정문 앞,강남구,서울특별시 강남구 언주로 107,37.48326111,127.0522995,1012.8109684420609,도곡근린공원,637.2629266381015,매봉,20,60,일반수요형
2340,40.59178082191781,20.133925763397393,43.54022988505747,33.19230769230769,0.3618385529157667,0.1272948164146868,10.347922192749778,1,5.13441219797348,0.7613228360632031, 삼호물산버스정류장(23370) 옆,강남구,서울특별시 강남구 논현로 82,37.47750854,127.04517365,1423.8111057487968,도곡근린공원,1023.7301686184046,양재시민의숲(매헌),40,100,고수요형
2341,17.90871369294606,9.00030586612714,18.44573643410853,16.570048309178745,0.3271547729379054,0.1127587272165585,1.875688124929784,0,0.2135678938099292,0.4802719959978916, 일원역 4~5번 출구 사이,강남구,서울특별시 강남구 일원로 127,37.4833107,127.08493805,537.3663355898177,대모산도시자연공원,63.51307280279197,일원,36,68,일반수요형
2342,38.61422708618331,18.214746849522697,41.81417624521073,30.62200956937799,0.3942678995288199,0.1329578063556169,11.19216667583274,1,4.701381338992434,0.3282875246219436, 대청역 1번출구 뒤,강남구,서울특별시 강남구 개포로 623,37.49400711,127.07951355,1299.7093604428192,광평근린공원,54.855485672527735,대청,20,56,고수요형
2344,12.455922865013774,6.7181780711306915,12.435452793834298,12.507246376811594,0.3386044454274024,0.2323344023001216,-0.0717935829772962,0,-1.0986477384856412,2.1775832713258105, 리엔파크 2단지 앞,강남구,서울특별시 강남구 헌릉로590길 10,37.46506119,127.10119629,1506.052705470991,율현공원,2350.0345617595735,복정,56,96,일반수요형
2347,6.8532526475037825,4.996175128976753,7.331975560081466,5.470588235294118,0.3783664459161148,0.0966887417218543,1.8613873247873487,0,-1.7860664040997771,-0.8647828148673466, 두산건설 본사,강남구,서울특별시 강남구 언주로 726,37.51863861,127.03540039,672.0342373882509,도산근린공원,523.587492317641,강남구청,8,72,일반수요형
2348,41.38219178082192,26.19962325232927,51.54214559386973,15.884615384615383,0.3500612400278063,0.0765996888344533,35.65753020925435,1,6.752441542562127,-2.1232604984256147, 포스코사거리(기업은행),강남구,서울특별시 강남구 테헤란로 501,37.50723267,127.05685425,751.2748302256771,봉은공원,584.3595573163827,삼성(무역센터),48,88,고수요형
2349,19.64206128133705,12.490610685586567,22.69439071566731,11.791044776119405,0.4016166773027015,0.1396156846061121,10.903345939547908,0,1.19820516803203,-0.5614278941224871, 역삼빌딩 앞(하나은행 옆),강남구,서울특별시 강남구 테헤란로 지하 156,37.50154495,127.03856659,1373.1166146741946,도곡근린공원,212.59809288426536,역삼,20,60,일반수요형
2350,5.840228245363766,3.499000992830615,6.159763313609467,5.005154639175258,0.3490473864191499,0.1665852467024914,1.1546086744342094,0,-2.2804233033860197,0.561521956684626, 래미안그레이튼102동앞,강남구,서울특별시 강남구 선릉로69길 19,37.49482346,127.04790497,561.9096717421423,도곡근린공원,465.6215593980464,한티,32,68,일반수요형
2351,12.041379310344828,6.793191934459913,12.730250481695569,10.305825242718448,0.363459335624284,0.138487972508591,2.424425238977122,0,-0.8789799588675804,0.1709957631931287, 청소년수련관(수영장)앞,강남구,서울특별시 강남구 광평로 144,37.48387909,127.0890274,540.4635410223724,광평근린공원,409.7781665443803,일원,24,64,일반수요형
2352,7.428139183055976,5.869520218273375,8.51639344262295,4.358381502890174,0.3507128309572301,0.0706720977596741,4.158011939732777,0,-1.5403844539631593,-1.1699494470349907, 서울본부세관(건설회관 앞),강남구,서울특별시 강남구 언주로 721,37.51758957,127.03502655,787.8861539960367,도산근린공원,477.5023720879165,학동,20,52,일반수요형
2353,17.729916897506925,11.721474880039766,19.04054054054054,14.401960784313726,0.3618467307241622,0.1392859932817748,4.6385797562268145,0,0.5711044849860706,0.3167250225250825, 강남구청역 2번출구 뒤,강남구,서울특별시 강남구 학동로 342,37.51681137,127.04047394,997.5720792956307,도산근린공원,80.10290388777916,강남구청,36,56,일반수요형
2354,4.118168389955687,2.5836727129377666,4.1361788617886175,4.07027027027027,0.4045911047345767,0.148493543758967,0.0659085915183474,0,-2.5519471044695727,-0.2935375844575262, 청담역 2번출구,강남구,서울특별시 강남구 영동대로 647,37.51978683,127.0567627,416.834851096035,청담근린공원,304.61175833064755,청담,28,48,일반수요형
2356,12.262341325811,7.813793803684346,13.239766081871345,9.70408163265306,0.3498964803312629,0.1392914653784219,3.5356844492182837,0,-0.7288190192642491,0.2434306611281308, 강남구청,강남구,서울특별시 강남구 학동로 지하 346,37.51807022,127.04711914,593.5845552522293,청담근린공원,526.6025037772324,강남구청,8,44,일반수요형
2357,12.0374479889043,6.823569132090339,13.862934362934364,7.379310344827586,0.358912317087222,0.1210969005645811,6.483624018106776,0,-0.7298889027296809,-0.4295132943415876, 르네상스호텔사거리 역삼지하보도 3번출구 앞 (더 오번 빌딩 명동칼국수 앞),강남구,서울특별시 강남구 언주로89길 7,37.50166321,127.04297638,1275.103983887653,도곡근린공원,545.5534931457897,선릉,32,72,일반수요형
2358,15.866941015089164,9.524123022018822,17.489443378119002,11.802884615384617,0.4458372957551655,0.1550099420765972,5.686558762734387,0,0.1993136289901776,-0.5039099014111926, 구룡초사거리 (현대아파트10동 앞 ),강남구,서울특별시 강남구 개포로 303,37.48138428,127.05391693,1264.8989258306242,도곡근린공원,746.8672725633135,구룡,40,76,일반수요형
2359,18.18878248974008,8.685679287195784,19.90038314176245,13.913875598086124,0.4004963898916967,0.1010078219013237,5.986507543676327,0,0.489913397780542,-0.829092046509149," 국립국악중,고교 정문 맞은편",강남구,서울특별시 강남구 논현로10길 29,37.47560501,127.05037689,1702.0202953353767,도곡근린공원,1224.2015034746055,양재시민의숲(매헌),36,120,일반수요형
2360,16.895460797799174,8.793158420877317,19.10597302504817,11.379807692307692,0.3717332899128877,0.1222828299275421,7.726165332740477,0,0.2773468096238067,-0.4073654035238336, 도곡1동 주민센터 교차로,강남구,서울특별시 강남구 도곡로 205,37.4928093,127.04138947,424.7904920861264,도곡근린공원,806.3449231239393,매봉,32,60,일반수요형
2362,14.118294360385145,7.141218835267368,14.466281310211944,13.25,0.3232657833203429,0.2109314107560405,1.2162813102119454,0,-0.7500074878625703,1.95809235985433, 신사동 가로수길 입구,강남구,서울특별시 강남구 신사동 501-5,37.51763535,127.02245331,1357.5457750400356,도산근린공원,252.0057639158714,신사,16,52,일반수요형
2363,8.70775623268698,5.0855833009141325,9.692456479690522,6.224390243902439,0.3006203276602513,0.2058215365038969,3.4680662357880827,0,-1.7478908346861872,1.6320448658100184, 강남 을지병원 교차로,강남구,서울특별시 강남구 도산대로 172 ,37.51913834,127.02751923,904.2974347252949,도산근린공원,656.5945688116032,학동,20,40,일반수요형
2364,13.239339752407153,7.231164845169698,15.342307692307692,7.956521739130435,0.3524155844155844,0.1479480519480519,7.385785953177257,0,-0.5292679917237781,0.0474320550639355, 도산공원교차로,강남구,서울특별시 강남구 도산대로 229 ,37.52124023,127.0318985,471.31201168750067,도산근린공원,715.8232221238064,압구정,28,44,일반수요형
2365,14.779917469050892,7.853407850685737,15.240847784200383,13.629807692307692,0.2880409492787343,0.2402047463936714,1.6110400918926937,0,-0.6676479064599272,2.794159805616084, K+ 타워 앞,강남구,서울특별시 강남구 도산대로 333 ,37.52330017,127.03847504,340.14857959042206,도산근린공원,488.7472821092144,압구정로데오,28,44,일반수요형
2368,9.424200278164117,5.908260931576975,9.80739299610895,8.463414634146341,0.367621015348288,0.1056670602125147,1.3439783619626091,0,-1.3422713341018015,-0.431525299040924, 도곡동 경남아파트 건너편,강남구,서울특별시 강남구 도곡동 874-1,37.48934174,127.04129791,346.8452327913916,도곡근린공원,551.2932724174635,매봉,16,60,일반수요형
2369,29.88082191780822,16.068296943860055,34.55172413793103,18.158653846153847,0.3387887956723055,0.118965754366662,16.393070291777185,1,3.242184606477762,-0.2241325205651715, KT선릉타워,강남구,서울특별시 강남구 대치동 1011,37.50542831,127.0528717,970.315188389435,봉은공원,364.1540634452012,선릉,36,84,고수요형
2370,11.17032967032967,6.330954838106538,11.182692307692308,11.139423076923077,0.323536645351697,0.147073290703394,0.0432692307692317,0,-1.2133821549641264,0.8917703640381345, 한티역 3번출구,강남구,서울특별시 강남구 대치동 1026,37.49655151,127.0542984,1072.0727451422404,도곡근린공원,130.5227810191877,한티,36,52,일반수요형
2371,8.705370101596516,6.520226817220407,9.464,6.698412698412699,0.3506168722907636,0.1368789596532177,2.765587301587302,0,-1.4249506166764452,0.0877588817527613, 한국우편사업진흥원,강남구,서울특별시 강남구 언주로 651,37.51474762,127.03513336,1103.9344585592598,도산근린공원,312.07670732911333,학동,28,68,일반수요형
2372,24.994520547945207,13.666414635947303,25.300766283524904,24.22596153846154,0.3369505645072893,0.1604187219116518,1.0748047450633642,1,1.6949190531906628,1.5953857815806136, 대치역 사거리,강남구,서울특별시 강남구 삼성로 156 ,37.49449921,127.063797,1719.6085566954882,도곡근린공원,18.55501612903316,대치,32,60,고수요형
2373,17.267586206896553,9.746375461430192,17.874274661508704,15.759615384615383,0.3063343717549325,0.1549644540298746,2.1146592768933186,0,0.0985299637846318,1.3287024013228486, 개포동역 사거리,강남구,서울특별시 강남구 개포동 181-3,37.48927689,127.06557465,1729.1531761515207,대모산도시자연공원,52.991827990449956,개포동,28,80,일반수요형
2375,32.46511627906977,16.715502625838266,36.986590038314176,21.172248803827753,0.4561351761334906,0.1288555536827911,15.814341234486424,1,3.860246943504092,-1.0981182012922472, 수서역 1번출구 앞,강남구,서울특별시 강남구 수서동 728,37.48735046,127.10099792,781.4843869239913,광평근린공원,39.78317144234957,수서,52,80,고수요형
2376,14.708211143695015,9.123313636751217,16.30674846625767,10.658031088082902,0.4956634433256903,0.1203269863423387,5.6487173781747675,0,0.1169089550460931,-1.630284915618917, 수서역 6번출구 앞,강남구,서울특별시 강남구 수서동 740,37.48677826,127.10051727,748.6188076506872,광평근린공원,106.56735714777216,수서,52,80,일반수요형
2377,43.67305061559507,20.700964807676655,47.38122605363985,34.411483253588514,0.3886922474549726,0.1006108065779169,12.969742800051336,1,5.833789040535667,-0.0318468321983978, 수서역 5번출구,강남구,서울특별시 강남구 수서동 724-4,37.48735046,127.10232544,898.1152949347037,광평근린공원,37.046495328444145,수서,64,80,고수요형
2380,11.54057771664374,5.729022454867259,12.901923076923078,8.120772946859903,0.3313468414779499,0.2411203814064362,4.781150130063175,0,-1.21731088026292,1.9002597359244615, 삼성동베이직하우스앞,강남구,서울특별시 강남구 봉은사로 456,37.51169586,127.04934692,595.2931881748775,봉은공원,376.6322208032294,삼성중앙,20,36,일반수요형
2381,11.43671766342142,6.078281196455411,12.50968992248062,8.70935960591133,0.3684786574242977,0.17560501033686,3.8003303165692905,0,-1.0581645483966196,0.5534621242532659, 언주역 6번출구앞,강남구,서울특별시 강남구 논현로 566,37.50636673,127.03452301,2011.583716939158,도곡근린공원,117.51405591928238,언주,36,64,일반수요형
2382,12.69050894085282,6.266286165074639,13.61271676300578,10.389423076923077,0.3505311077389985,0.1570561456752655,3.2232936860827035,0,-0.8625007070645537,0.5547323941989025, 역삼동 sk뷰 501동앞,강남구,서울특별시 강남구 역삼로 315-1,37.50122833,127.05036163,1301.5948136693837,도곡근린공원,389.68988849129255,선릉,32,68,일반수요형
2383,7.063380281690141,3.623335255565342,7.180392156862745,6.765,0.3996011964107677,0.1804586241276171,0.4153921568627456,0,-2.0450255539356386,0.3870780543818645, 보금자리정원,강남구,서울특별시 강남구 헌릉로569길 39-6,37.46632767,127.09488678,1924.5150633132707,대모산도시자연공원,2140.420978538258,일원,36,52,일반수요형
2384,38.66027397260274,20.283780540403605,41.63409961685824,31.197115384615383,0.4866770604492949,0.1162922542697186,10.436984232242851,1,5.080014541163376,-0.8017655195783032, 자곡사거리,강남구,서울특별시 강남구 밤고개로 206,37.47602844,127.10594177,945.7682363044029,율현공원,1211.79104569624,수서,32,60,고수요형
2385,14.263013698630138,7.887019546375863,15.490421455938698,11.182692307692308,0.3609296965040338,0.179216288897426,4.3077291482463895,0,-0.4387622870525236,0.794605110492159, 학동역,강남구,서울특별시 강남구 학동로 지하 180,37.51395035,127.03015137,1267.7821066602366,도산근린공원,136.27778444397282,학동,20,44,일반수요형
2386,7.878397711015737,6.305573989064808,8.299603174603174,6.78974358974359,0.3660795351370982,0.1301979299073906,1.5098595848595844,0,-1.5743170625896996,-0.1053670734011751, 크린랩 본사,강남구,논현동 279-166,37.50958633,127.04090881,1373.2438127262503,봉은공원,275.5574768692353,선정릉,32,64,일반수요형
2387,24.315068493150687,13.058354532986035,24.591170825335897,23.62679425837321,0.3571830985915493,0.1742535211267605,0.964376566962688,1,1.5336770240916675,1.5800580941830706, 래미안강남힐즈 사거리,강남구,서울특별시 강남구 자곡로 101,37.47245407,127.09607697,1555.2111881009623,대모산도시자연공원,1619.261288941875,일원,12,20,고수요형
2388,14.204735376044567,9.021352626265186,15.684824902723737,10.47549019607843,0.518188057652711,0.1094224924012158,5.209334706645304,0,0.0712397018739408,-2.022377018159012, 강남구 도시관리공단,강남구,강남구 삼성동 111-61,37.51678467,127.05161285,469.04874440037634,봉은공원,325.2626696590125,청담,24,56,일반수요형
2389,23.66712707182321,12.207336162674183,24.25338491295938,22.202898550724637,0.3760140064196089,0.1809746133644587,2.050486362234743,1,1.398439448955069,1.3555145843817074, 경기여자고등학교 후문 (삼성로3길 입구),강남구,강남구 개포동 198,37.48616028,127.06723785,1411.062820149564,대모산도시자연공원,342.63816251642027,개포동,40,88,고수요형
2390,14.242424242424242,9.21223574146482,14.625,13.276699029126211,0.3684719535783365,0.2445841392649903,1.3483009708737868,0,-0.4912249164200833,2.046241185655061, 구룡마을 입구 (래미안블레스티지 아파트),강남구,강남구 개포동 146-1,37.48088074,127.06304169,1587.379754179279,대모산도시자연공원,758.5163722276855,구룡,28,52,일반수요형
2391,1.306532663316583,0.6753282312233923,1.282758620689655,1.3703703703703705,0.3307692307692307,0.0461538461538461,-0.0876117496807153,0,-3.134284866145388,-1.3087867216960374, 구룡터널 입구(개포1단지아파트),강남구,강남구 개포동 146-1,37.47598648,127.05962372,1926.6547228217355,대모산도시자연공원,1208.6450961493945,구룡,20,40,일반수요형
2392,3.006768189509306,2.1620662305202094,3.2494279176201375,2.3181818181818183,0.4732695554305008,0.0388294879009566,0.9312460994383192,0,-2.44630185930232,-2.897285211030447, 구룡산 입구 (구룡산 서울둘레길 입구),강남구,강남구 개포동 1277,37.47447205,127.05545044,1986.7933858548129,도곡근린공원,1407.5934896954195,구룡,20,56,일반수요형
2394,22.835164835164836,11.097183539247292,24.126923076923077,19.60576923076923,0.4509744947064485,0.1269850818094321,4.521153846153847,1,1.4433900212993973,-0.5594630623775364, 개포래미안포레스트아파트 107동 앞,강남구,강남구 개포로 264,37.48025131,127.05419159,1380.0624472309769,도곡근린공원,840.2215761656321,구룡,44,83,고수요형
2396,12.065096952908588,7.924744901385131,11.549323017408124,13.365853658536585,0.3539203306164619,0.1446447021007921,-1.8165306411284607,0,-0.913475982452612,0.7661370388655369, 영동3교 북단(우성캐릭터 앞 보도),강남구,강남구 도곡동 466,37.48574066,127.05104828,734.8890462458959,도곡근린공원,400.69332707356256,매봉,16,52,일반수요형
2398,8.018232819074333,5.863230857314812,9.115686274509804,5.261083743842365,0.3974112296659087,0.1551513031310127,3.8546025306674383,0,-1.5167615866334674,-0.2395791109460479, 더라움,강남구,강남구 역삼동 801-7,37.50811005,127.0394516,1554.8702326648133,봉은공원,469.06607780223993,선정릉,20,64,일반수요형
2401,8.1164095371669,5.067429872966864,8.32876712328767,7.579207920792079,0.3513046483497494,0.1480905477795057,0.7495592024955915,0,-1.7459129753611655,0.401351959514412, 밀알학교 입구 (삼성서울병원 입구),강남구,강남구 일원동 128-10,37.48656082,127.08267212,783.2109669677278,대모산도시자연공원,354.28387986928414,일원,44,84,일반수요형
2403,26.359396433470508,14.042901208813005,26.10940499040307,26.985576923076923,0.433180682764363,0.1255203996669442,-0.8761719326738522,1,2.09521011887556,0.2856683703793473, 공무원연금매점 교차로 (개포주공9단지 입구),강남구,강남구 일원동 703-2,37.48871994,127.07453918,1157.0414539536011,대모산도시자연공원,335.84292860270557,대모산입구,27,60,고수요형
2404,42.80958904109589,19.83935942193151,44.230326295585414,39.26794258373206,0.4144507375763975,0.1362516399475216,4.962383711853356,1,5.342901564916396,0.9498569627410264, 대모산입구역 4번 출구 앞,강남구,강남구 일원동 700-1,37.49180984,127.07315826,1517.5227218196758,대모산도시자연공원,62.08504272340149,대모산입구,24,60,고수요형
2405,26.389807162534435,17.37317331793982,30.965250965250966,14.995192307692308,0.5419385145362493,0.0831463019990604,15.970058657558658,1,3.227745363674317,-3.0074838556662167, 청담공원앞 교차로,강남구,강남구 삼성동 111-44,37.51871109,127.05084991,323.305477123787,청담근린공원,232.17342928824493,청담,28,52,고수요형
2406,7.417952314165498,4.464820386308113,8.037109375,5.840796019900497,0.3187748156551332,0.2019285309132161,2.1963133550995027,0,-2.01370638853422,1.4305166723796228, 논현동 광명빌딩 앞,강남구,강남구 논현동 279,37.5175705,127.02364349,1277.674924349838,도산근린공원,340.3021643837825,신사,16,56,일반수요형
2407,27.77101967799642,13.624028064954429,30.76691729323308,20.3,0.3427595980417418,0.1568539036330842,10.46691729323308,1,2.422403769825013,0.7559065674103119, 역삼서초삼성 세무서 앞 (역삼빌딩 앞,강남구,강남구 역삼동 804,37.49847031,127.03011322,1598.6146607827907,도곡근린공원,201.39988933613105,강남,44,128,고수요형
2408,14.059147180192571,6.9734301600658775,14.406909788867562,13.179611650485436,0.4213873397906271,0.1212210155562078,1.2272981383821246,0,-0.4681080628674304,-0.5001737358806433, 강남한양수자인아파트,강남구,강남구 자곡로 260,37.4773407,127.11327362,593.3914232156138,율현공원,1149.887472228028,장지,16,16,일반수요형
2409,17.716438356164385,9.066308297484092,19.85632183908046,12.346153846153848,0.394494703471739,0.1372458053042604,7.510167992926615,0,0.4351953587726984,-0.3423020718233809, 역삼동 디오슈페리움 (우성아파트 사거리),강남구,강남구 역삼동 858(강남대로 342 앞 도로),37.49206161,127.03074646,1275.4459063367601,도곡근린공원,579.9208775630715,강남,48,152,일반수요형
2410,18.915862068965517,10.224406640053482,22.115606936416185,10.854368932038836,0.3492781099606242,0.1094501968791016,11.26123800437735,0,0.8294681714812984,-0.5929215919306478, 포스코피앤에스타워 (역삼역 3번출구 부근),강남구,강남구 역삼동 804(강남구 테헤란로 134 앞 보도),37.49959946,127.03375244,1434.1951882616172,도곡근린공원,264.2155616894363,역삼,16,64,일반수요형
2411,17.016483516483518,8.906499041088837,16.484674329501917,18.364077669902912,0.3794801420729738,0.073296738779464,-1.8794033404009944,0,0.1014812385120472,-0.395312714020717, 세곡동 성당,강남구,강남구 율현동 165-2(강남구 밤고개로21길 50),37.47296906,127.11222839,305.3429145126305,율현공원,1297.571984084612,복정,0,20,일반수요형
2413,28.33150684931507,14.406396962684848,28.497120921305186,27.91866028708134,0.3803790735905618,0.1426361086935499,0.5784606342238412,1,2.3648249709532534,1.0696800352968292,도곡역 1번 출구,강남구,남부순환로 2814,37.49095917,127.05498505,880.9160035076047,도곡근린공원,34.37292524829955,도곡,32,56,고수요형
2414,37.087551299589606,18.339955509903557,41.729885057471265,25.492822966507177,0.3321530006270518,0.1225332890708568,16.237062090964088,1,4.557591619043202,0.27612454535962, 도곡역 아카데미스위트 앞,강남구,언주로30길 21,37.48897171,127.05182648,617.5832874018365,도곡근린공원,386.457423869868,도곡,36,56,고수요형
2415,28.106995884773664,11.182652769731764,28.22648752399232,27.807692307692307,0.3429477794045876,0.1311859443631039,0.4187952163000155,1,1.9431115300870052,1.2426021711386877,한티역 롯데백화점 앞,강남구,선릉로 228,37.49667358,127.05342865,1024.1120400649756,도곡근린공원,68.99004964708885,한티,32,56,고수요형
2416,14.146776406035665,7.315617694973064,15.490421455938698,10.758454106280194,0.3364685348589159,0.1675555124600019,4.731967349658504,0,-0.5242174180497446,0.810308699827953,한티역 6번 출구,강남구,선릉로 227,37.4958992,127.05219269,885.8823211064282,도곡근린공원,70.80278788774854,한티,32,56,일반수요형
2417,7.543785310734464,4.547664065399037,8.317120622568094,5.494845360824742,0.4399925107657742,0.1542782250514885,2.8222752617433517,0,-1.692902252986635,-0.6372767453017709,선정릉 디캠프(D.CAMP)앞,강남구,선릉로 551,37.50799942,127.04524994,1116.9747680699181,봉은공원,278.2888150017223,선정릉,20,60,일반수요형
2418,14.538567493112948,7.465453318817177,16.335260115606935,10.033816425120772,0.4137375651350071,0.0989104689720511,6.301443690486163,0,-0.1595203467418764,-1.211252632772032,봉은사역 7번 출구,강남구,봉은사로 601,37.51393509,127.05982208,381.57035456669774,봉은공원,48.867540239301896,봉은사,44,88,일반수요형
2419,14.26896551724138,7.59002614333733,15.272727272727272,11.774038461538462,0.4076365393910101,0.1361043982600289,3.4986888111888117,0,-0.3462693533220323,-0.3086923191486374,"봉은사역 1,2번 출구",강남구,봉은사로 601,37.51430893,127.05970001,373.52835462825436,봉은공원,49.097248209026425,봉은사,44,68,일반수요형
2420,18.478737997256516,8.944726517400932,19.78502879078695,15.20673076923077,0.5060500334050925,0.0783163833419939,4.578298021556179,0,0.7257384785330114,-2.140087272705868,학여울역 사거리(LG베스트샵 앞),강남구,영동대로 202,37.49689484,127.07013702,2142.4173330154376,대모산도시자연공원,47.85274275953258,학여울,28,36,일반수요형
2421,15.249097472924188,8.223991778649342,16.587939698492463,11.833333333333334,0.4177320075757575,0.1317471590909091,4.754606365159129,0,-0.0696971972259563,-0.5452217143276031, 신논현역 4번출구,강남구,봉은사로 110,37.504673,127.02579498,2330.319334057693,도곡근린공원,65.3677739534909,신논현,64,128,일반수요형
2422,15.101788170563962,7.890998784172744,15.273603082851638,14.673076923076923,0.3636032425539666,0.1115766463248019,0.6005261597747147,0,-0.3093483726866745,0.0576526795741204,수서동 성당 맞은편,강남구,광평로34길 202,37.48416901,127.09484863,490.8982427124859,광평근린공원,644.8334926931101,수서,32,44,일반수요형
2423,36.74657534246575,17.256243435382288,36.88675623800384,36.39712918660287,0.3414725069897483,0.1622367194780987,0.4896270514009728,1,3.8464956717369017,2.2162958456476924,영희초교 사거리(래미안개포루체하임),강남구,개포로110길 50,37.4908371,127.08065033,1063.9317318598387,광평근린공원,313.58422587226244,대청,52,84,고수요형
2425,4.427514792899408,2.7062200575305853,4.37603305785124,4.557291666666667,0.3040427664550618,0.1750751754092883,-0.1812586088154271,0,-2.70675167543214,1.210052631486889,세곡동 사거리(대왕초등학교 정류장),강남구,헌릉로618길 8,37.46461868,127.10684967,1153.7654930573983,율현공원,1894.925813281008,복정,36,68,일반수요형
2426,17.016438356164382,8.158562598637895,18.8639846743295,12.379807692307692,0.5110288198357752,0.1021574625664144,6.484176982021809,0,0.4479717000619228,-2.0585953662862666,강남한신휴플러스 6단지,강남구,강남구 율현동 333-1,37.46829605,127.10469818,1061.1463021929246,율현공원,1968.5427119670348,복정,20,96,일반수요형
2427,17.53360768175583,9.860247821637993,18.46257197696737,15.20673076923077,0.3767798466593647,0.1537318103583163,3.2558412077366015,0,0.302448125854339,0.4908746239829473,개포고등학교 정문앞,강남구,강남구 개포로402,37.48485184,127.0583725,1324.3094311307905,도곡근린공원,225.04268476891846,구룡,32,60,일반수요형
2430,15.52712100139082,11.340465492088946,17.664092664092664,10.019900497512438,0.3527409530634181,0.1049802938015048,7.6441921665802255,0,0.3295050702566544,-0.5194864182798997,강남파이낸스센터앞(역삼역2번출구),강남구,테헤란로152,37.50024414,127.03605652,1358.9685486086526,도곡근린공원,54.83847827808243,역삼,36,40,일반수요형
2431,39.39124487004104,17.830023316358123,39.79693486590038,38.377990430622006,0.3583608265323841,0.1795797881576662,1.4189444352783769,1,4.33653193775378,2.364848366474614,대치역 7번출구,강남구,남부순환로155,37.49411774,127.06290436,1632.432880717243,도곡근린공원,85.17955215059632,대치,32,64,고수요형
3602,12.088483146067416,7.515331311942731,14.858527131782946,4.795918367346939,0.491925177181364,0.0356686418031834,10.062608764436009,0,-0.186716204091482,-3.4915905604251805, 한국지역난방공사강남지사,강남구,양재대로 781,37.49229431,127.09433746,509.3221797570988,광평근린공원,823.5464595047393,수서,0,0,일반수요형
3604,18.761316872427983,11.850862926792235,22.28544061302682,9.8743961352657,0.4914089347079037,0.0862762301674343,12.411044477761122,0,1.2824274765553398,-2.52772920649671, 삼성중앙역 5번출구,강남구,삼성동145-1,37.51296234,127.05386353,177.948048783219,봉은공원,51.57642929301604,삼성중앙,16,48,일반수요형
3606,13.176880222841223,7.503651943216452,13.32751937984496,12.792079207920793,0.3138146073353768,0.1260966071239826,0.5354401719241686,0,-0.7499516772556637,0.7171178727507426, 신사동주민센터 옆,강남구,압구정로 130,37.52422714,127.02285004,1075.245566176874,도산근린공원,587.2864302362686,압구정,24,36,일반수요형
3609,12.17590027700831,6.719943681738857,13.88030888030888,7.848039215686274,0.3745876464566033,0.109543851666477,6.032269664622605,0,-0.688494951977357,-0.7302306129542242, 언주초등학교 입구,강남구,남부순환로2641,37.48536682,127.03849792,796.8684175480074,도곡근린공원,380.9211484218494,양재(서초구청),40,108,일반수요형
3610,3.705792682926829,2.271703798764362,3.613588110403397,3.9405405405405407,0.3632250102838338,0.1164129987659399,-0.3269524301371436,0,-2.67310526644192,-0.3672412690729728, 윗반마을 입구,강남구,세곡동 97-3,37.46534729,127.1088028,981.0330524007423,율현공원,1704.7441631703987,복정,36,48,일반수요형
3611,8.69111424541608,4.705651431536513,9.38747553816047,6.893939393939394,0.3912690684842583,0.1613112625770853,2.4935361442210757,0,-1.601065314363215,0.064593610058158, 방죽마을 입구,강남구,율현동 264-5,37.47123337,127.10721588,749.3948306607693,율현공원,1722.434165015155,복정,28,56,일반수요형
3612,13.780859916782246,8.270040966818092,13.330754352030947,14.92156862745098,0.3462157809983897,0.136976650563607,-1.5908142754200334,0,-0.6087187176644125,0.7859590679863383, 은곡마을,강남구,세곡동 548(도담공원~행복공원 사이),37.46726227,127.09801483,1650.6517486321961,율현공원,2148.2378396119357,수서,28,84,일반수요형
3614,34.394520547945206,14.93692169566326,34.13026819923372,35.05769230769231,0.313844193085869,0.18185438903935,-0.927424108458588,1,3.121907716604546,2.8106492313682465, 은마아파트 입구 사거리,강남구,삼성로237(정성한줄 대치점 앞),37.49840164,127.06093597,1666.512841060523,도곡근린공원,484.3137847604151,대치,28,44,고수요형
3615,8.721288515406162,5.80655145952621,9.838206627680313,5.870646766169155,0.3955355709009153,0.1318451903003051,3.967559861511158,0,-1.3777952852625697,-0.5724773185271721, 서울 논현동우체국 앞,강남구,학동로212,37.51446152,127.0326004,1155.7399004303038,도산근린공원,87.21643769317132,학동,32,64,일반수요형
3616,8.552447552447552,4.955090076937525,9.14396887159533,7.039800995024875,0.304824202780049,0.2168438266557645,2.104167876570455,0,-1.8399558509987757,1.8802125953624864, 역삼중학교 앞(체육관 방향),강남구,도곡로43길 10,37.49526215,127.04950714,677.2351453471996,도곡근린공원,316.10926862433615,한티,24,76,일반수요형
3618,16.833791208791208,8.218716581724093,17.29230769230769,15.6875,0.4251325989392084,0.1414932680538555,1.6048076923076913,0,0.069568553531352,-0.1054838579978452, 서울율현초교 삼거리,강남구,밤고개로 231,37.47364044,127.10702515,770.0597005091652,율현공원,1493.9413579676543,수서,44,72,일반수요형
3620,8.510708401976936,7.054441804090917,9.54586129753915,5.61875,0.4827719705768486,0.0884630274874177,3.927111297539149,0,-1.0724047335252769,-2.1651354244526826, 청담역 11번 출구,강남구,학동로87길 7,37.51925659,127.0515976,242.1481953267906,청담근린공원,155.02065236544613,청담,32,64,일반수요형
3621,8.146086956521739,5.1377757724423665,8.8125,6.40251572327044,0.3620836891545687,0.0964987190435525,2.40998427672956,0,-1.580405522493341,-0.6864309149963134, 휘문고교 사거리,강남구,영동대로 319,37.50286484,127.06594086,1534.6547804389074,봉은공원,708.6609758828857,삼성(무역센터),28,48,일반수요형
3622,7.415277777777778,4.018876174821241,7.593810444874275,6.960591133004926,0.3268402322532309,0.1696946993819067,0.6332193118693485,0,-2.0427645887159533,0.9673250390896097, 은마아파트입구 사거리(1),강남구,삼성로 312,37.49986649,127.0605011,1621.9837445815106,봉은공원,646.6480548216396,대치,32,64,일반수요형
3623,7.588068181818182,5.009314194099067,7.255445544554456,8.4321608040201,0.4019093972295021,0.0774990640209659,-1.1767152594656445,0,-1.6923343527498749,-1.103997447628435, 일원에코파크 앞(개포로 방면),강남구,개포로 670,37.49587631,127.08650208,1004.8331552248512,광평근린공원,668.6767373497405,대청,8,32,일반수요형
3624,7.419491525423729,5.062049360661397,7.273084479371317,7.793969849246231,0.3818770226537217,0.1222158766419189,-0.5208853698749145,0,-1.7990443241480951,-0.2467116847875844, 대모산입구역 7번 출구 앞,강남구,개포로 522(사진참고),37.49017715,127.07305908,1362.7133832175043,대모산도시자연공원,136.29620863218736,대모산입구,43,72,일반수요형
3627,23.939226519337016,16.824919194504066,21.31782945736434,30.442307692307693,0.3506231248557581,0.1576852065543503,-9.124478234943354,1,1.5746957600243634,2.318755388572262, 압구정나들목,강남구,압구정동 507,37.53075027,127.04160309,890.1399076383403,도산근린공원,386.32526150246906,압구정로데오,0,16,고수요형
3628,23.493150684931507,11.596938349652058,26.03646833013436,17.15311004784689,0.3602915451895043,0.1170262390670554,8.883358282287467,1,1.6032048101616734,-0.141154125450596, 역삼1동 주민센터,강남구,역삼로 7길 16,37.49521255,127.03302765,1191.1567420507513,도곡근린공원,470.43228207177975,강남,8,96,고수요형
3629,5.881231671554252,4.063623912602846,6.234468937875752,4.918032786885246,0.319122413363251,0.1869857890800299,1.3164361509905058,0,-2.2931473724063474,1.1907217364444502, 청담사거리(신한오피스텔빌딩 앞),강남구,도산대로 510,37.52416229,127.0489502,441.47342336209124,청담근린공원,659.6319661547286,청담,28,56,일반수요형
3630,10.730398899587346,6.059298137391401,11.798464491362765,8.029126213592233,0.4768619407768235,0.1244712216382515,3.7693382777705313,0,-0.907244283038432,-1.4167709047873112, 개포우성6차아파트 정문 앞,강남구,언주로 3,37.47685623,127.05536652,1752.1762641669097,도곡근린공원,1151.9462172816457,구룡,40,76,일반수요형
3634,6.973087818696884,3.932495764030892,7.660749506903353,5.221105527638191,0.3463335364615072,0.1529555149299207,2.4396439792651625,0,-2.0037198215747547,0.3119429031892458, 국악고교 앞 교차로,강남구,논현로 34,37.47402191,127.04844666,1836.3143032819576,도곡근린공원,990.2948851676471,양재시민의숲(매헌),28,96,일반수요형
3636,14.799725651577504,7.772411758264882,16.390384615384615,10.842105263157896,0.3773287607748632,0.1717490036147928,5.54827935222672,0,-0.2905921617873286,0.4170223039605812, 삼성중앙역·플래티넘아파트 정류소,강남구,봉은사로 471,37.51264191,127.05156708,373.82346008605754,봉은공원,156.72781006518258,삼성중앙,12,36,일반수요형
3637,6.93165969316597,3.6730277885453257,7.105263157894737,6.495098039215686,0.3424547283702213,0.117102615694165,0.6101651186790509,0,-2.0403024498035043,-0.0614042341772009, 세곡데이케어센터,강남구,헌릉로 590길 68,37.46072388,127.10287476,1710.6139112340677,율현공원,2398.4027049176902,복정,12,28,일반수요형
3638,9.53758865248227,6.25559453026999,9.448818897637794,9.766497461928934,0.3572278405710886,0.1424747174301011,-0.317678564291139,0,-1.4183335404457096,0.4257899123086603, 신청담나들목,강남구,강변오솔길,37.52796173,127.05162811,741.4478599495498,청담근린공원,967.8988133963279,청담,4,32,일반수요형
3640,18.506906077348063,11.618352765408892,20.771153846153847,12.735294117647058,0.3658481976266886,0.1068736472871109,8.03585972850679,0,0.843535795327041,-0.5178379273933433, 일원1동주민센터앞 사거리,강남구,강남구 일원동 645-13,37.4909668,127.08836365,468.19135799406536,광평근린공원,829.0634448917097,대청,28,52,일반수요형
3641,24.371742112482853,12.599726246781804,26.92911877394636,17.92270531400966,0.447233635391456,0.1151573141216862,9.006413459936699,1,1.9884000030875468,-1.0300414317107924, 대청역,강남구,강남구 일원로 7,37.49370575,127.0799942,1246.1639776523423,광평근린공원,46.01523666178819,대청,32,64,고수요형
3642,22.931506849315067,12.71102128855781,23.39731285988484,21.770334928229666,0.4026881720430108,0.1137992831541218,1.626977931655173,1,1.482095367656206,0.0122178353309295, LH강남힐스테이트아파트,강남구,자곡로3길 21,37.47092819,127.08970642,1239.159737118082,대모산도시자연공원,1493.6372457873142,일원,8,8,고수요형
3643,15.44889502762431,8.883844656047456,16.576107899807322,12.595121951219513,0.4043808672329012,0.1000447027268663,3.9809859485878096,0,0.0385153024382995,-0.8287693631858069, 더시그넘하우스 앞,강남구,자곡로 174-14,37.47267914,127.10375977,1045.076074988209,율현공원,1534.1276174416803,수서,32,60,일반수요형
3644,16.692307692307693,8.62381119714871,16.66730769230769,16.754807692307693,0.3113890717577353,0.1639236339697169,-0.0875000000000021,0,-0.1836393461216636,1.5808903911320948, 상록수아파트,강남구,광평로10길 15,37.48276138,127.08042145,349.38624395631376,대모산도시자연공원,364.79683251335905,일원,16,56,일반수요형
3646,11.926795580110497,7.705786312324746,12.97696737044146,9.23152709359606,0.3703532136653156,0.151592356687898,3.7454402768454,0,-0.7708063625598863,0.1939257066088396, 선정릉역 4번 출구,강남구,강남구 봉은사로 326,37.5097847,127.04277039,1212.247412855468,봉은공원,122.42952472301589,선정릉,32,64,일반수요형
3647,9.20110957004161,5.5595062620933815,10.847490347490348,5.0,0.5019596020500452,0.0731082303286101,5.847490347490348,0,-1.0025709537525436,-2.765215854224246, 구룡역 1번 출구,강남구,개포동 175-3,37.48642349,127.05931854,1332.4816553504181,도곡근린공원,61.64599951375845,구룡,28,48,일반수요형
3648,4.106725146198831,2.605661440723118,3.967280163599182,4.456410256410257,0.3460306158775365,0.1374154503381986,-0.4891300928110746,0,-2.644923491420326,0.1841292708739164, 구룡역 4번 출구,강남구,개포동 156-17,37.48670578,127.0605011,1422.4021457761155,도곡근린공원,145.90520294220124,구룡,20,52,일반수요형
3649,8.928471248246844,5.302288041425363,10.30813953488372,5.314720812182741,0.5144517750549796,0.0633050581212692,4.993418722700979,0,-1.0636370755569775,-2.9903688153059673, 구룡역 5번 출구,강남구,개포동 181-1,37.48607635,127.05921936,1337.3142392298917,도곡근린공원,90.66079154134238,구룡,24,52,일반수요형
3651,28.72664835164835,15.659574946755008,27.809615384615384,31.01923076923077,0.3615932673456701,0.1476593506431406,-3.209615384615386,1,2.4000000836547115,1.719483476981047, 개포동역 4번출구,강남구,"강남구 개포동 182-4
(개포동역 4번출구)",37.48929596,127.06616974,1689.5780441597792,대모산도시자연공원,20.18194194156666,개포동,28,76,고수요형
4901,11.632541133455211,6.7187263270320825,13.364321608040202,7.006711409395973,0.4271570014144271,0.0639635392110639,6.357610198644228,0,-0.6063557281135342,-2.0616259506385974,KT&G타워 옆(상상마당 대치아트홀),강남구,강남구 대치동 1002,37.50687408,127.06473541,1129.1328303653563,봉은공원,258.1762679262916,삼성,20,100,일반수요형
4902,20.112328767123287,11.05174194669659,23.442528735632184,11.754807692307692,0.3565590519002861,0.1168096989510965,11.687721043324492,0,1.112514907245321,-0.523987211597263, 구역삼세무서 교차로,강남구,강남구 논현로 337,37.49524307,127.03937531,741.472593199778,도곡근린공원,651.2003108238803,역삼,20,60,일반수요형
4903,5.796783625730995,3.5900368322308274,6.352941176470588,4.361256544502618,0.342749054224464,0.1139974779319041,1.9916846319679695,0,-2.173818802563887,-0.2936294108668865, 신사스퀘어,강남구,신사동 504-11,37.51916885,127.0189743,1542.6434869962793,도산근린공원,330.85930235003264,신사,16,68,일반수요형
4905,14.63943661971831,9.247398580152613,17.219844357976655,7.872448979591836,0.251587454300558,0.0517606311333461,9.347395378384816,0,-0.0526887125412341,-0.5469776319656764, 강남경찰서,강남구,강남구 대치동 998,37.50971985,127.06679535,1099.8106185135543,봉은공원,327.5313301259748,삼성,16,80,일반수요형
4906,31.134246575342463,15.53741640094914,35.616858237547895,19.884615384615383,0.299190425906371,0.0846532910946849,15.732242852932512,1,3.3490248759619368,-0.2524351411050957, 섬유센터 앞,강남구,강남구 대치동 944-1,37.50767136,127.06017303,806.3884350325801,봉은공원,293.971876079713,삼성(무역센터),40,140,고수요형
4907,9.220028208744711,5.385384542061022,9.730994152046785,7.88265306122449,0.3564326143490898,0.1173321095303656,1.8483410908222933,0,-1.4520457448112072,-0.190235850654193, 극동스포츠 앞,강남구,강남구 신사동 575,37.5257225,127.02588654,814.6662213191973,도산근린공원,272.139869903092,압구정,24,40,일반수요형
4908,7.517045454545454,4.480683284382389,8.11787819253438,5.948717948717949,0.3267195767195767,0.1421012849584278,2.1691602438164317,0,-1.8861189893620924,0.3959518746329911, SB타워 앞,강남구,강남구 도산대로 318,37.52210999,127.03646088,311.91869732228855,도산근린공원,661.3688034184021,강남구청,32,48,일반수요형
4909,5.780058651026393,3.97514465564031,6.1318458417849895,4.862433862433862,0.341451040081177,0.1204972095383054,1.2694119793511272,0,-2.170987797298404,-0.1071267276306373, 노보텔 앰배서더 앞,강남구,강남구 봉은사로 130,37.50570297,127.02919769,2171.4173000664273,도산근린공원,385.1145116004697,신논현,36,88,일반수요형
4913,9.17952314165498,5.4691449424476035,10.38206627680312,6.095,0.3372039724980901,0.1506493506493506,4.287066276803119,0,-1.4602501154134286,0.3204939558991785, 레베쌍트 빌딩 앞,강남구,봉은사로86길 6,37.51292038,127.056427,136.6381891419202,봉은공원,277.57681908286526,삼성중앙,20,68,일반수요형
4914,21.546703296703296,11.140370598291574,24.130518234165063,15.043478260869565,0.3090654086446512,0.0790513833992094,9.087039973295502,0,1.2442371315459686,-0.3352240830291884, 도심공항타워 앞,강남구,삼성동 159-9,37.50999069,127.05847168,508.0293646209108,봉은공원,432.74754377797643,삼성(무역센터),28,132,일반수요형
4915,6.353606789250354,3.917636143133021,7.163424124513619,4.196891191709844,0.358860195903829,0.1447016918967052,2.9665329328037746,0,-2.051702385008907,-0.0276721866897903, 영동중앙교회 버스정류장,강남구,강남구 논현로 420,37.49775314,127.03857422,1004.6213679007215,도곡근린공원,369.7041359090686,역삼,16,60,일반수요형
4916,4.919452887537994,3.182603732651303,5.073684210526316,4.51912568306011,0.3716404077849861,0.1714550509731232,0.5545585274662059,0,-2.443543472690776,0.4144729086961579, 청담역 1번출구,강남구,강남구 영동대로 648,37.51973724,127.05767822,493.5239931359879,청담근린공원,383.95953352633364,청담,28,44,일반수요형
4917,18.31267217630854,10.110426398182874,19.867562380038382,14.360975609756098,0.4736367055283941,0.0855208725084618,5.506586770282288,0,0.7867444588088155,-1.7696241732297195,일원에코파크 주차장,강남구,강남구 일원동 701-2,37.49404526,127.08678436,819.8667947963039,광평근린공원,642.5549922732143,대청,28,56,일반수요형
4918,16.97655172413793,8.546961705267707,18.337209302325583,13.617224880382777,0.4056711082222944,0.1518524536886578,4.719984421942808,0,0.1759498312917484,-0.0100159373059434,매봉역 1번출구,강남구,강남구 도곡동 180-26,37.48661041,127.04550934,413.8084322266337,도곡근린공원,117.27548323360583,매봉,40,104,일반수요형
4919,5.755681818181818,3.417796548526949,5.609126984126984,6.125,0.3642645607107601,0.1159921026653504,-0.5158730158730158,0,-2.2439391929795325,-0.259971892660639,학여울역사거리(은마아파트),강남구,강남구 대치동 398,37.49665833,127.06938171,2149.7777749887186,대모산도시자연공원,106.95046825584724,학여울,32,32,일반수요형
4923,20.486676016830295,9.486546018873373,21.212180746561884,18.676470588235293,0.3734510850961867,0.1198055726706373,2.535710158326591,0,0.7405613228882,0.1801522126541176,수협대치동지점,강남구,서울특별시 강남구 영동대로 214-2,37.49861526,127.0683136,2041.5402193499538,봉은공원,295.96648754230614,학여울,12,64,일반수요형
4924,7.093704245973646,4.732120684266814,7.757637474541752,5.395833333333333,0.3219814241486068,0.1461300309597523,2.3618041412084185,0,-1.9313999178497965,0.4753244549651064,논현동가구거리,강남구,강남구 논현동 56-21,37.51280975,127.02636719,1524.6053628866507,도산근린공원,476.68845040245674,논현,4,28,일반수요형
4925,5.895348837209302,3.605375931332495,6.183288409703504,5.158620689655172,0.3053911900065746,0.1932938856015779,1.024667720048332,0,-2.379574815093038,1.456671407035391,청담백영빌딩 앞,강남구,강남구 도산대로 456,37.52390289,127.04660797,589.7655051455121,청담근린공원,660.6716963173001,압구정로데오,28,56,일반수요형
4926,17.340866290018834,10.043049149997117,18.4,14.675496688741722,0.4123588184187663,0.0888357949609035,3.724503311258277,0,0.4727609187258257,-0.967077756823988,대치우성아파트 사거리,강남구,강남구 영동대로 230,37.50099564,127.06803894,1812.1373714396648,봉은공원,531.8895415759499,학여울,24,52,일반수요형
4928,9.471042471042471,5.512262685772045,10.00268817204301,8.116438356164384,0.4196901752955564,0.1567468406033428,1.8862498158786265,0,-1.361725245498905,-0.2020642215735804,교수마을 입구,강남구,강남구 자곡동 203-1,37.4818573,127.10456085,1290.710619109509,광평근린공원,565.3186211130518,수서,8,24,일반수요형
4929,7.47953216374269,4.133049694922839,8.202185792349727,5.680272108843537,0.3416731821735731,0.2100599426635392,2.52191368350619,0,-2.0047189066378746,1.2944393828349758,파스쿠찌 청담사거리점 앞,강남구,강남구 도산대로 509,37.52464676,127.04914856,470.40324188305806,청담근린공원,694.4195539135627,청담,28,64,일반수요형
4930,7.159722222222222,4.736680964387548,7.346153846153846,6.675,0.4293566117038474,0.0672486259295182,0.671153846153846,0,-1.6677454133810443,-1.7427085414454089,학여울역 1번 출구,강남구,강남구 대치동 13-9,37.49662018,127.07099915,2081.8773018347165,대모산도시자연공원,36.058412862200484,학여울,12,44,일반수요형
